[{"Name":"Aare", "River":"Rhein", "Lake":"Brienzersee", "Sea":"", "Length":288.0, "SourceLongitude":8.2, "SourceLatitude":46.55, "Mountains":"Alps", "SourceAltitude":2310.0, "EstuaryLongitude":8.22, "EstuaryLatitude":47.61},
 {"Name":"Adda", "River":"Po", "Lake":"Lago di Como", "Sea":"", "Length":313.0, "SourceLongitude":10.3, "SourceLatitude":46.55, "Mountains":"Alps", "SourceAltitude":2235.0, "EstuaryLongitude":9.88, "EstuaryLatitude":45.13},
 {"Name":"Akagera", "River":"", "Lake":"Lake Victoria", "Sea":"", "Length":275.0, "SourceLongitude":29.3, "SourceLatitude":-2.5, "Mountains":"East African Rift", "SourceAltitude":2700.0, "EstuaryLongitude":33.0, "EstuaryLatitude":-1.0},
 {"Name":"Allegheny River", "River":"Ohio River", "Lake":"", "Sea":"", "Length":523.0, "SourceLongitude":-77.9, "SourceLatitude":41.9, "Mountains":"Appalachian Mountains", "SourceAltitude":759.0, "EstuaryLongitude":-80.0, "EstuaryLatitude":40.42},
 {"Name":"Aller", "River":"Weser", "Lake":"", "Sea":"", "Length":211.0, "SourceLongitude":11.23, "SourceLatitude":52.1, "Mountains":"", "SourceAltitude":130.0, "EstuaryLongitude":9.18, "EstuaryLatitude":52.94},
 {"Name":"Alz", "River":"Inn", "Lake":"Chiemsee", "Sea":"", "Length":150.0, "SourceLongitude":12.35, "SourceLatitude":47.3, "Mountains":"Alps", "SourceAltitude":0.0, "EstuaryLongitude":12.8, "EstuaryLatitude":48.3},
 {"Name":"Amazonas", "River":"", "Lake":"", "Sea":"Atlantic Ocean", "Length":6448.0, "SourceLongitude":-71.7, "SourceLatitude":-15.5, "Mountains":"Andes", "SourceAltitude":5170.0, "EstuaryLongitude":-50.0, "EstuaryLatitude":0.0},
 {"Name":"Ammer", "River":"Isar", "Lake":"Ammersee", "Sea":"", "Length":168.0, "SourceLongitude":11.05, "SourceLatitude":47.57, "Mountains":"Alps", "SourceAltitude":850.0, "EstuaryLongitude":11.96, "EstuaryLatitude":48.5},
 {"Name":"Amudarja", "River":"", "Lake":"Ozero Aral", "Sea":"", "Length":1415.0, "SourceLongitude":68.3, "SourceLatitude":37.1, "Mountains":"", "SourceAltitude":310.0, "EstuaryLongitude":59.0, "EstuaryLatitude":44.0},
 {"Name":"Amur", "River":"", "Lake":"", "Sea":"Sea of Okhotsk", "Length":2824.0, "SourceLongitude":121.48, "SourceLatitude":53.33, "Mountains":"", "SourceAltitude":305.0, "EstuaryLongitude":140.73, "EstuaryLatitude":53.1},
 {"Name":"Angara", "River":"Jenissej", "Lake":"Ozero Baikal", "Sea":"", "Length":1779.0, "SourceLongitude":113.0, "SourceLatitude":56.5, "Mountains":"", "SourceAltitude":0.0, "EstuaryLongitude":92.5, "EstuaryLatitude":58.2},
 {"Name":"Argun", "River":"Amur", "Lake":"", "Sea":"", "Length":1620.0, "SourceLongitude":122.46, "SourceLatitude":49.94, "Mountains":"", "SourceAltitude":1200.0, "EstuaryLongitude":121.48, "EstuaryLatitude":53.33},
 {"Name":"Arkansas", "River":"Mississippi", "Lake":"", "Sea":"", "Length":2334.0, "SourceLongitude":-106.3, "SourceLatitude":39.25, "Mountains":"", "SourceAltitude":4260.0, "EstuaryLongitude":-91.0, "EstuaryLatitude":34.0},
 {"Name":"Arno", "River":"", "Lake":"", "Sea":"Mediterranean Sea", "Length":240.0, "SourceLongitude":11.7, "SourceLatitude":43.9, "Mountains":"Apennin", "SourceAltitude":1385.0, "EstuaryLongitude":10.2, "EstuaryLatitude":43.7},
 {"Name":"Aruwimi", "River":"Zaire", "Lake":"", "Sea":"", "Length":1287.0, "SourceLongitude":14.7, "SourceLatitude":-11.3, "Mountains":"", "SourceAltitude":0.0, "EstuaryLongitude":29.5, "EstuaryLatitude":2.5},
 {"Name":"Asahan", "River":"", "Lake":"", "Sea":"Malakka Strait", "Length":150.0, "SourceLongitude":98.7, "SourceLatitude":2.7, "Mountains":"", "SourceAltitude":905.0, "EstuaryLongitude":99.2, "EstuaryLatitude":3.1},
 {"Name":"Atbara", "River":"Nile", "Lake":"", "Sea":"", "Length":1120.0, "SourceLongitude":37.3, "SourceLatitude":12.8, "Mountains":"Ethiopian Highlands", "SourceAltitude":0.0, "EstuaryLongitude":33.97, "EstuaryLatitude":17.68},
 {"Name":"Bahr el-Djebel/Albert-Nil", "River":"White Nile", "Lake":"", "Sea":"", "Length":0.0, "SourceLongitude":30.9, "SourceLatitude":1.7, "Mountains":"East African Rift", "SourceAltitude":619.0, "EstuaryLongitude":30.43, "EstuaryLatitude":9.5},
 {"Name":"Bahr el-Ghasal", "River":"White Nile", "Lake":"", "Sea":"", "Length":716.0, "SourceLongitude":0.0, "SourceLatitude":0.0, "Mountains":"", "SourceAltitude":0.0, "EstuaryLongitude":30.43, "EstuaryLatitude":9.5},
 {"Name":"Bani", "River":"Niger", "Lake":"", "Sea":"", "Length":430.0, "SourceLongitude":-6.56, "SourceLatitude":12.6, "Mountains":"", "SourceAltitude":285.0, "EstuaryLongitude":-4.2, "EstuaryLatitude":14.52},
 {"Name":"Baro", "River":"Sobat", "Lake":"", "Sea":"", "Length":0.0, "SourceLongitude":0.0, "SourceLatitude":0.0, "Mountains":"", "SourceAltitude":0.0, "EstuaryLongitude":0.0, "EstuaryLatitude":0.0},
 {"Name":"Benue", "River":"Niger", "Lake":"", "Sea":"", "Length":1400.0, "SourceLongitude":12.58, "SourceLatitude":7.58, "Mountains":"", "SourceAltitude":1100.0, "EstuaryLongitude":6.75, "EstuaryLatitude":7.78},
 {"Name":"Black Drin", "River":"Drin", "Lake":"", "Sea":"", "Length":133.0, "SourceLongitude":20.7, "SourceLatitude":41.0, "Mountains":"", "SourceAltitude":695.0, "EstuaryLongitude":20.4, "EstuaryLatitude":42.1},
 {"Name":"Blue Nile", "River":"Nile", "Lake":"", "Sea":"", "Length":1783.0, "SourceLongitude":37.3, "SourceLatitude":12.0, "Mountains":"Ethiopian Highlands", "SourceAltitude":1830.0, "EstuaryLongitude":32.5, "EstuaryLatitude":15.6},
 {"Name":"Bomu", "River":"Ubangi", "Lake":"", "Sea":"", "Length":280.0, "SourceLongitude":27.0, "SourceLatitude":5.0, "Mountains":"", "SourceAltitude":0.0, "EstuaryLongitude":22.5, "EstuaryLatitude":4.0},
 {"Name":"Brahmaputra", "River":"", "Lake":"", "Sea":"Ganges", "Length":2896.0, "SourceLongitude":81.33, "SourceLatitude":31.06, "Mountains":"", "SourceAltitude":6000.0, "EstuaryLongitude":89.8, "EstuaryLatitude":23.8},
 {"Name":"Breg", "River":"Donau", "Lake":"", "Sea":"", "Length":45.9, "SourceLongitude":8.16, "SourceLatitude":48.1, "Mountains":"Black Forest", "SourceAltitude":1078.0, "EstuaryLongitude":8.52, "EstuaryLatitude":47.95},
 {"Name":"Brigach", "River":"Donau", "Lake":"", "Sea":"", "Length":43.0, "SourceLongitude":8.28, "SourceLatitude":48.11, "Mountains":"Black Forest", "SourceAltitude":940.0, "EstuaryLongitude":8.52, "EstuaryLatitude":47.95},
 {"Name":"Busira", "River":"Ruki", "Lake":"", "Sea":"", "Length":830.0, "SourceLongitude":20.8, "SourceLatitude":-0.2, "Mountains":"", "SourceAltitude":0.0, "EstuaryLongitude":19.0, "EstuaryLatitude":-0.3},
 {"Name":"Chatanga", "River":"", "Lake":"", "Sea":"Sibirian Sea", "Length":1636.0, "SourceLongitude":95.0, "SourceLatitude":68.0, "Mountains":"", "SourceAltitude":0.0, "EstuaryLongitude":115.0, "EstuaryLatitude":73.0},
 {"Name":"Chire", "River":"Zambezi", "Lake":"", "Sea":"", "Length":402.0, "SourceLongitude":35.2, "SourceLatitude":-14.2, "Mountains":"East African Rift", "SourceAltitude":474.0, "EstuaryLongitude":35.5, "EstuaryLatitude":-18.0},
 {"Name":"Colorado", "River":"", "Lake":"Lake Powell", "Sea":"Pacific Ocean", "Length":2330.0, "SourceLongitude":-105.7, "SourceLatitude":40.35, "Mountains":"", "SourceAltitude":2700.0, "EstuaryLongitude":-114.8, "EstuaryLatitude":31.81},
 {"Name":"Columbia River", "River":"", "Lake":"Franklin. D. Roosevelt Lake", "Sea":"Pacific Ocean", "Length":1953.0, "SourceLongitude":-115.85, "SourceLatitude":50.2, "Mountains":"", "SourceAltitude":808.0, "EstuaryLongitude":-124.06, "EstuaryLatitude":46.24},
 {"Name":"Connecticut River", "River":"", "Lake":"", "Sea":"Atlantic Ocean", "Length":655.0, "SourceLongitude":-71.21, "SourceLatitude":45.25, "Mountains":"", "SourceAltitude":0.0, "EstuaryLongitude":-72.33, "EstuaryLatitude":41.27},
 {"Name":"Cuango", "River":"Kwa", "Lake":"", "Sea":"", "Length":1100.0, "SourceLongitude":14.2, "SourceLatitude":-11.5, "Mountains":"", "SourceAltitude":0.0, "EstuaryLongitude":17.4, "EstuaryLatitude":3.3},
 {"Name":"Cuilo", "River":"Kwa", "Lake":"", "Sea":"", "Length":970.0, "SourceLongitude":14.7, "SourceLatitude":-11.3, "Mountains":"", "SourceAltitude":0.0, "EstuaryLongitude":17.4, "EstuaryLatitude":3.3},
 {"Name":"Dalaelv", "River":"", "Lake":"", "Sea":"Baltic Sea", "Length":520.0, "SourceLongitude":15.1, "SourceLatitude":60.7, "Mountains":"", "SourceAltitude":0.0, "EstuaryLongitude":17.2, "EstuaryLatitude":60.7},
 {"Name":"Darling River", "River":"Murray River", "Lake":"", "Sea":"", "Length":2739.0, "SourceLongitude":152.0, "SourceLatitude":-28.0, "Mountains":"Great Dividing Range", "SourceAltitude":0.0, "EstuaryLongitude":141.9, "EstuaryLatitude":-34.1},
 {"Name":"Detroit River", "River":"", "Lake":"Lake Erie", "Sea":"", "Length":200.0, "SourceLongitude":-82.6, "SourceLatitude":42.1, "Mountains":"", "SourceAltitude":176.0, "EstuaryLongitude":-82.2, "EstuaryLatitude":43.0},
 {"Name":"Dnepr", "River":"", "Lake":"", "Sea":"Black Sea", "Length":2201.0, "SourceLongitude":34.0, "SourceLatitude":55.5, "Mountains":"Waldai Hills", "SourceAltitude":220.0, "EstuaryLongitude":32.252, "EstuaryLatitude":46.5257},
 {"Name":"Dnjestr", "River":"", "Lake":"", "Sea":"Black Sea", "Length":1352.0, "SourceLongitude":23.0, "SourceLatitude":49.0, "Mountains":"Karpaten", "SourceAltitude":1000.0, "EstuaryLongitude":30.23, "EstuaryLatitude":46.35},
 {"Name":"Don", "River":"", "Lake":"", "Sea":"Sea of Azov", "Length":1870.0, "SourceLongitude":37.5, "SourceLatitude":53.0, "Mountains":"", "SourceAltitude":0.0, "EstuaryLongitude":39.4, "EstuaryLatitude":47.1},
 {"Name":"Donau", "River":"", "Lake":"", "Sea":"Black Sea", "Length":2845.0, "SourceLongitude":8.52, "SourceLatitude":47.95, "Mountains":"Black Forest", "SourceAltitude":686.0, "EstuaryLongitude":29.65, "EstuaryLatitude":45.16},
 {"Name":"Doubs", "River":"Saone", "Lake":"", "Sea":"", "Length":453.0, "SourceLongitude":6.2, "SourceLatitude":46.7, "Mountains":"Jura", "SourceAltitude":937.0, "EstuaryLongitude":5.0, "EstuaryLatitude":46.9},
 {"Name":"Douro", "River":"", "Lake":"", "Sea":"Atlantic Ocean", "Length":897.0, "SourceLongitude":-3.0, "SourceLatitude":42.0, "Mountains":"Cordillera Iberica", "SourceAltitude":2160.0, "EstuaryLongitude":-8.66, "EstuaryLatitude":41.15},
 {"Name":"Drau", "River":"Donau", "Lake":"", "Sea":"", "Length":749.0, "SourceLongitude":12.26, "SourceLatitude":46.73, "Mountains":"Alps", "SourceAltitude":1450.0, "EstuaryLongitude":18.93, "EstuaryLatitude":45.54},
 {"Name":"Drin", "River":"", "Lake":"", "Sea":"Mediterranean Sea", "Length":152.0, "SourceLongitude":20.4, "SourceLatitude":42.1, "Mountains":"", "SourceAltitude":0.0, "EstuaryLongitude":19.6, "EstuaryLatitude":41.8},
 {"Name":"Ebro", "River":"", "Lake":"", "Sea":"Mediterranean Sea", "Length":925.0, "SourceLongitude":-4.37, "SourceLatitude":43.0375, "Mountains":"Cordillera Cantabrica", "SourceAltitude":1.6, "EstuaryLongitude":0.5, "EstuaryLatitude":40.8},
 {"Name":"Elbe", "River":"", "Lake":"", "Sea":"North Sea", "Length":1091.0, "SourceLongitude":15.54, "SourceLatitude":50.78, "Mountains":"Sudety Mountains", "SourceAltitude":1.386, "EstuaryLongitude":8.71, "EstuaryLatitude":53.89},
 {"Name":"Enns", "River":"Donau", "Lake":"", "Sea":"", "Length":254.0, "SourceLongitude":13.35, "SourceLatitude":47.33, "Mountains":"Alps", "SourceAltitude":1375.0, "EstuaryLongitude":14.52, "EstuaryLatitude":48.24},
 {"Name":"Etsch", "River":"", "Lake":"", "Sea":"Mediterranean Sea", "Length":415.0, "SourceLongitude":10.5, "SourceLatitude":46.7, "Mountains":"Alps", "SourceAltitude":1525.0, "EstuaryLongitude":7.09, "EstuaryLatitude":44.8},
 {"Name":"Euphrat", "River":"Schatt al Arab", "Lake":"", "Sea":"", "Length":2736.0, "SourceLongitude":38.75, "SourceLatitude":38.8, "Mountains":"", "SourceAltitude":0.0, "EstuaryLongitude":47.44, "EstuaryLatitude":31.0},
 {"Name":"Fimi", "River":"Kwa", "Lake":"", "Sea":"", "Length":200.0, "SourceLongitude":18.2, "SourceLatitude":-2.7, "Mountains":"", "SourceAltitude":0.0, "EstuaryLongitude":16.9, "EstuaryLatitude":3.0},
 {"Name":"Fulda", "River":"Weser", "Lake":"", "Sea":"", "Length":221.0, "SourceLongitude":9.9, "SourceLatitude":50.5, "Mountains":"Rhoen", "SourceAltitude":850.0, "EstuaryLongitude":9.65, "EstuaryLatitude":51.4},
 {"Name":"Gambia", "River":"", "Lake":"", "Sea":"Atlantic Ocean", "Length":1120.0, "SourceLongitude":-12.3, "SourceLatitude":11.3, "Mountains":"", "SourceAltitude":438.0, "EstuaryLongitude":-16.6, "EstuaryLatitude":13.5},
 {"Name":"Ganges", "River":"", "Lake":"", "Sea":"Gulf of Bengal", "Length":2511.0, "SourceLongitude":79.5, "SourceLatitude":30.5, "Mountains":"", "SourceAltitude":0.0, "EstuaryLongitude":90.0, "EstuaryLatitude":22.0},
 {"Name":"Garonne", "River":"", "Lake":"", "Sea":"Atlantic Ocean", "Length":647.0, "SourceLongitude":0.8, "SourceLatitude":42.73, "Mountains":"Pyrenees", "SourceAltitude":0.0, "EstuaryLongitude":-0.6, "EstuaryLatitude":45.0},
 {"Name":"Glomma", "River":"", "Lake":"", "Sea":"Skagerrak", "Length":604.0, "SourceLongitude":12.0, "SourceLatitude":62.6, "Mountains":"", "SourceAltitude":860.0, "EstuaryLongitude":10.95, "EstuaryLatitude":59.2},
 {"Name":"Goetaaelv", "River":"", "Lake":"", "Sea":"Kattegat", "Length":93.0, "SourceLongitude":12.34, "SourceLatitude":58.4, "Mountains":"", "SourceAltitude":44.0, "EstuaryLongitude":11.9, "EstuaryLatitude":57.7},
 {"Name":"Guadalquivir", "River":"", "Lake":"", "Sea":"Atlantic Ocean", "Length":657.0, "SourceLongitude":-3.0, "SourceLatitude":37.8, "Mountains":"Cordillera Betica", "SourceAltitude":1400.0, "EstuaryLongitude":-6.35, "EstuaryLatitude":36.8},
 {"Name":"Guadiana", "River":"", "Lake":"", "Sea":"Atlantic Ocean", "Length":742.0, "SourceLongitude":-3.0, "SourceLatitude":42.0, "Mountains":"Cordillera Iberica", "SourceAltitude":608.0, "EstuaryLongitude":-7.65, "EstuaryLatitude":37.35},
 {"Name":"Hudson River", "River":"", "Lake":"", "Sea":"Atlantic Ocean", "Length":493.0, "SourceLongitude":-73.95, "SourceLatitude":44.1, "Mountains":"Adirondacks", "SourceAltitude":1309.0, "EstuaryLongitude":-74.0, "EstuaryLatitude":40.7},
 {"Name":"Hwangho", "River":"", "Lake":"", "Sea":"Yellow Sea", "Length":4845.0, "SourceLongitude":96.2, "SourceLatitude":35.3, "Mountains":"", "SourceAltitude":4500.0, "EstuaryLongitude":119.14, "EstuaryLatitude":37.74},
 {"Name":"Iller", "River":"Donau", "Lake":"", "Sea":"", "Length":147.0, "SourceLongitude":10.27, "SourceLatitude":47.43, "Mountains":"Alps", "SourceAltitude":783.0, "EstuaryLongitude":9.97, "EstuaryLatitude":48.38},
 {"Name":"Indus", "River":"", "Lake":"", "Sea":"Arabian Sea", "Length":3180.0, "SourceLongitude":79.7, "SourceLatitude":32.45, "Mountains":"", "SourceAltitude":5300.0, "EstuaryLongitude":67.4, "EstuaryLatitude":24.0},
 {"Name":"Inn", "River":"Donau", "Lake":"", "Sea":"", "Length":517.0, "SourceLongitude":9.67, "SourceLatitude":46.41, "Mountains":"Alps", "SourceAltitude":2484.0, "EstuaryLongitude":13.47, "EstuaryLatitude":48.57},
 {"Name":"Irawaddy", "River":"", "Lake":"", "Sea":"Andaman Sea", "Length":2170.0, "SourceLongitude":98.0, "SourceLatitude":29.0, "Mountains":"", "SourceAltitude":4300.0, "EstuaryLongitude":96.0, "EstuaryLatitude":17.0},
 {"Name":"Irtysch", "River":"Ob", "Lake":"", "Sea":"", "Length":4248.0, "SourceLongitude":90.0, "SourceLatitude":47.9, "Mountains":"Altai", "SourceAltitude":2930.0, "EstuaryLongitude":68.93, "EstuaryLatitude":61.07},
 {"Name":"Isar", "River":"Donau", "Lake":"", "Sea":"", "Length":295.0, "SourceLongitude":11.4, "SourceLatitude":47.37, "Mountains":"Alps", "SourceAltitude":1.16, "EstuaryLongitude":12.98, "EstuaryLatitude":48.8},
 {"Name":"Ischim", "River":"Irtysch", "Lake":"", "Sea":"", "Length":2450.0, "SourceLongitude":71.5, "SourceLatitude":52.0, "Mountains":"", "SourceAltitude":0.0, "EstuaryLongitude":71.5, "EstuaryLatitude":58.0},
 {"Name":"Isere", "River":"Rhone", "Lake":"", "Sea":"", "Length":290.0, "SourceLongitude":7.0, "SourceLatitude":45.4, "Mountains":"Alps", "SourceAltitude":2770.0, "EstuaryLongitude":4.9, "EstuaryLatitude":45.0},
 {"Name":"Jangtse", "River":"", "Lake":"", "Sea":"East China Sea", "Length":6380.0, "SourceLongitude":91.2, "SourceLatitude":33.5, "Mountains":"", "SourceAltitude":5405.0, "EstuaryLongitude":121.5, "EstuaryLatitude":32.0},
 {"Name":"Jenissej", "River":"", "Lake":"", "Sea":"Sibirian Sea", "Length":4092.0, "SourceLongitude":97.5, "SourceLatitude":52.33, "Mountains":"", "SourceAltitude":0.0, "EstuaryLongitude":100.02, "EstuaryLatitude":51.06},
 {"Name":"Joekulsa a Fjoellum", "River":"", "Lake":"", "Sea":"Norwegian Sea", "Length":206.0, "SourceLongitude":-16.5, "SourceLatitude":64.8, "Mountains":"", "SourceAltitude":0.0, "EstuaryLongitude":-16.6, "EstuaryLatitude":66.2},
 {"Name":"Jordan", "River":"", "Lake":"Dead Sea", "Sea":"", "Length":251.0, "SourceLongitude":35.7, "SourceLatitude":33.7, "Mountains":"Jabal Lubnan", "SourceAltitude":0.0, "EstuaryLongitude":35.5, "EstuaryLatitude":31.3},
 {"Name":"Jubba", "River":"", "Lake":"", "Sea":"Indian Ocean", "Length":1658.0, "SourceLongitude":0.0, "SourceLatitude":0.0, "Mountains":"", "SourceAltitude":0.0, "EstuaryLongitude":42.7, "EstuaryLatitude":-0.5},
 {"Name":"Karasu", "River":"", "Lake":"Lake Keban", "Sea":"", "Length":720.0, "SourceLongitude":41.3, "SourceLatitude":49.9, "Mountains":"Kurdistan", "SourceAltitude":1950.0, "EstuaryLongitude":38.75, "EstuaryLatitude":38.8},
 {"Name":"Karun", "River":"Schatt al Arab", "Lake":"", "Sea":"", "Length":950.0, "SourceLongitude":50.1, "SourceLatitude":32.35, "Mountains":"Zagros", "SourceAltitude":0.0, "EstuaryLongitude":48.17, "EstuaryLatitude":30.43},
 {"Name":"Kasai", "River":"Kwa", "Lake":"", "Sea":"", "Length":1983.0, "SourceLongitude":19.3, "SourceLatitude":-10.96, "Mountains":"", "SourceAltitude":0.0, "EstuaryLongitude":17.4, "EstuaryLatitude":3.3},
 {"Name":"Katun", "River":"Ob", "Lake":"", "Sea":"", "Length":688.0, "SourceLongitude":86.56, "SourceLatitude":49.75, "Mountains":"Altai", "SourceAltitude":2000.0, "EstuaryLongitude":85.0, "EstuaryLatitude":52.43},
 {"Name":"Kemijoki", "River":"", "Lake":"", "Sea":"Baltic Sea", "Length":550.0, "SourceLongitude":28.9525, "SourceLatitude":67.96, "Mountains":"", "SourceAltitude":230.0, "EstuaryLongitude":24.45, "EstuaryLatitude":65.77},
 {"Name":"Klaraelv", "River":"", "Lake":"Vaenern", "Sea":"", "Length":460.0, "SourceLongitude":11.9, "SourceLatitude":62.2, "Mountains":"", "SourceAltitude":662.0, "EstuaryLongitude":13.5, "EstuaryLatitude":59.4},
 {"Name":"Kokemaeenjoki", "River":"", "Lake":"", "Sea":"Baltic Sea", "Length":121.0, "SourceLongitude":23.0, "SourceLatitude":61.3, "Mountains":"", "SourceAltitude":0.0, "EstuaryLongitude":21.2, "EstuaryLatitude":61.3},
 {"Name":"Kolyma", "River":"", "Lake":"", "Sea":"Sibirian Sea", "Length":2129.0, "SourceLongitude":145.0, "SourceLatitude":61.5, "Mountains":"", "SourceAltitude":0.0, "EstuaryLongitude":161.49, "EstuaryLatitude":69.63},
 {"Name":"Kura", "River":"", "Lake":"Caspian Sea", "Sea":"", "Length":1364.0, "SourceLongitude":42.76, "SourceLatitude":40.7, "Mountains":"Kurdistan", "SourceAltitude":2650.0, "EstuaryLongitude":49.43, "EstuaryLatitude":39.28},
 {"Name":"Kwa", "River":"Zaire", "Lake":"", "Sea":"", "Length":100.0, "SourceLongitude":17.4, "SourceLatitude":3.3, "Mountains":"", "SourceAltitude":0.0, "EstuaryLongitude":16.1967, "EstuaryLatitude":-3.1765},
 {"Name":"Kymijoki", "River":"", "Lake":"", "Sea":"Baltic Sea", "Length":203.0, "SourceLongitude":25.4, "SourceLatitude":61.5, "Mountains":"", "SourceAltitude":78.0, "EstuaryLongitude":26.5, "EstuaryLatitude":60.3},
 {"Name":"Lagen", "River":"Glomma", "Lake":"Mjoesa-See", "Sea":"", "Length":322.0, "SourceLongitude":8.45, "SourceLatitude":62.19, "Mountains":"", "SourceAltitude":611.0, "EstuaryLongitude":11.45, "EstuaryLatitude":61.1},
 {"Name":"Lech", "River":"Donau", "Lake":"", "Sea":"", "Length":264.0, "SourceLongitude":10.0, "SourceLatitude":47.17, "Mountains":"Alps", "SourceAltitude":1840.0, "EstuaryLongitude":10.93, "EstuaryLatitude":48.73},
 {"Name":"Leine", "River":"Aller", "Lake":"", "Sea":"", "Length":281.0, "SourceLongitude":10.32, "SourceLatitude":51.39, "Mountains":"", "SourceAltitude":340.0, "EstuaryLongitude":9.59, "EstuaryLatitude":52.72},
 {"Name":"Lena", "River":"", "Lake":"", "Sea":"Sibirian Sea", "Length":4400.0, "SourceLongitude":107.88, "SourceLatitude":53.99, "Mountains":"", "SourceAltitude":1465.0, "EstuaryLongitude":126.692, "EstuaryLatitude":72.4005},
 {"Name":"Limmat", "River":"Aare", "Lake":"", "Sea":"", "Length":36.3, "SourceLongitude":8.64, "SourceLatitude":47.23, "Mountains":"", "SourceAltitude":406.0, "EstuaryLongitude":8.23631, "EstuaryLatitude":47.5018},
 {"Name":"Limpopo", "River":"", "Lake":"", "Sea":"Indian Ocean", "Length":1750.0, "SourceLongitude":28.0, "SourceLatitude":-26.0, "Mountains":"", "SourceAltitude":1800.0, "EstuaryLongitude":34.0, "EstuaryLatitude":-25.2},
 {"Name":"Loire", "River":"", "Lake":"", "Sea":"Atlantic Ocean", "Length":1013.0, "SourceLongitude":4.22, "SourceLatitude":44.84, "Mountains":"Cevennes", "SourceAltitude":1408.0, "EstuaryLongitude":-2.18, "EstuaryLatitude":47.27},
 {"Name":"Lomami", "River":"Zaire", "Lake":"", "Sea":"", "Length":1450.0, "SourceLongitude":24.7, "SourceLatitude":-8.7, "Mountains":"", "SourceAltitude":1140.0, "EstuaryLongitude":24.0, "EstuaryLatitude":-0.8},
 {"Name":"Lualaba", "River":"Zaire", "Lake":"", "Sea":"", "Length":0.0, "SourceLongitude":27.0, "SourceLatitude":-12.0, "Mountains":"", "SourceAltitude":0.0, "EstuaryLongitude":25.2, "EstuaryLatitude":0.5},
 {"Name":"Luapula", "River":"", "Lake":"Lake Mweru", "Sea":"", "Length":300.0, "SourceLongitude":29.7, "SourceLatitude":-11.2, "Mountains":"East African Rift", "SourceAltitude":1140.0, "EstuaryLongitude":28.7, "EstuaryLatitude":-9.0},
 {"Name":"Lukenie", "River":"Fimi", "Lake":"", "Sea":"", "Length":900.0, "SourceLongitude":24.5, "SourceLatitude":-6.8, "Mountains":"", "SourceAltitude":0.0, "EstuaryLongitude":16.9, "EstuaryLatitude":3.0},
 {"Name":"Lukuga", "River":"Lualaba", "Lake":"", "Sea":"", "Length":350.0, "SourceLongitude":29.2, "SourceLatitude":-5.9, "Mountains":"East African Rift", "SourceAltitude":782.0, "EstuaryLongitude":27.0, "EstuaryLatitude":-6.0},
 {"Name":"Lulua", "River":"Kwa", "Lake":"", "Sea":"", "Length":970.0, "SourceLongitude":14.7, "SourceLatitude":-11.3, "Mountains":"", "SourceAltitude":0.0, "EstuaryLongitude":17.4, "EstuaryLatitude":3.3},
 {"Name":"Luvua", "River":"Lualaba", "Lake":"", "Sea":"", "Length":350.0, "SourceLongitude":28.7, "SourceLatitude":-9.0, "Mountains":"East African Rift", "SourceAltitude":931.0, "EstuaryLongitude":27.0, "EstuaryLatitude":-7.0},
 {"Name":"Maas", "River":"", "Lake":"", "Sea":"North Sea", "Length":925.0, "SourceLongitude":5.63, "SourceLatitude":47.97, "Mountains":"", "SourceAltitude":409.0, "EstuaryLongitude":4.67, "EstuaryLatitude":51.72},
 {"Name":"Mackenzie River", "River":"", "Lake":"", "Sea":"Arctic Ocean", "Length":1903.0, "SourceLongitude":-113.9, "SourceLatitude":61.7, "Mountains":"", "SourceAltitude":156.0, "EstuaryLongitude":-135.02, "EstuaryLatitude":69.2},
 {"Name":"Main", "River":"Rhein", "Lake":"", "Sea":"", "Length":524.0, "SourceLongitude":11.4, "SourceLatitude":50.1, "Mountains":"Fichtelgebirge", "SourceAltitude":887.0, "EstuaryLongitude":8.29, "EstuaryLatitude":49.99},
 {"Name":"Manicouagan", "River":"Saint Lawrence River", "Lake":"", "Sea":"", "Length":560.0, "SourceLongitude":-68.7, "SourceLatitude":51.4, "Mountains":"", "SourceAltitude":350.0, "EstuaryLongitude":-68.15, "EstuaryLatitude":49.2},
 {"Name":"March", "River":"Donau", "Lake":"", "Sea":"", "Length":358.0, "SourceLongitude":16.85, "SourceLatitude":50.21, "Mountains":"Sudety Mountains", "SourceAltitude":1380.0, "EstuaryLongitude":16.98, "EstuaryLatitude":48.17},
 {"Name":"Marne", "River":"Seine", "Lake":"", "Sea":"", "Length":514.0, "SourceLongitude":5.35, "SourceLatitude":47.8, "Mountains":"", "SourceAltitude":406.0, "EstuaryLongitude":2.4, "EstuaryLatitude":48.8},
 {"Name":"Mekong", "River":"", "Lake":"", "Sea":"South China Sea", "Length":4350.0, "SourceLongitude":94.0, "SourceLatitude":32.5, "Mountains":"", "SourceAltitude":5200.0, "EstuaryLongitude":107.0, "EstuaryLatitude":9.0},
 {"Name":"Merrimack River", "River":"", "Lake":"", "Sea":"Atlantic Ocean", "Length":177.0, "SourceLongitude":-71.6, "SourceLatitude":43.4, "Mountains":"", "SourceAltitude":0.0, "EstuaryLongitude":-70.8119, "EstuaryLatitude":42.8194},
 {"Name":"Mincio", "River":"Po", "Lake":"", "Sea":"", "Length":75.0, "SourceLongitude":10.7, "SourceLatitude":45.4, "Mountains":"Alps", "SourceAltitude":65.0, "EstuaryLongitude":10.95, "EstuaryLatitude":45.1},
 {"Name":"Mississippi", "River":"", "Lake":"", "Sea":"Gulf of Mexico", "Length":3778.0, "SourceLongitude":-95.2, "SourceLatitude":47.25, "Mountains":"", "SourceAltitude":512.0, "EstuaryLongitude":-89.25, "EstuaryLatitude":29.15},
 {"Name":"Missouri", "River":"Mississippi", "Lake":"Fort Peck Lake", "Sea":"", "Length":4130.0, "SourceLongitude":-111.5, "SourceLatitude":45.9, "Mountains":"", "SourceAltitude":1232.0, "EstuaryLongitude":-90.12, "EstuaryLatitude":38.81},
 {"Name":"Moldau", "River":"Elbe", "Lake":"", "Sea":"", "Length":440.0, "SourceLongitude":13.56, "SourceLatitude":48.97, "Mountains":"Bohemian Mountains", "SourceAltitude":1174.0, "EstuaryLongitude":14.47, "EstuaryLatitude":50.35},
 {"Name":"Morava", "River":"Donau", "Lake":"", "Sea":"", "Length":185.0, "SourceLongitude":21.4, "SourceLatitude":43.7, "Mountains":"", "SourceAltitude":0.0, "EstuaryLongitude":21.1, "EstuaryLatitude":44.6},
 {"Name":"Mosel", "River":"Rhein", "Lake":"", "Sea":"", "Length":544.0, "SourceLongitude":6.89, "SourceLatitude":47.89, "Mountains":"Vogesen", "SourceAltitude":715.0, "EstuaryLongitude":7.61, "EstuaryLatitude":50.37},
 {"Name":"Mur", "River":"Drau", "Lake":"", "Sea":"", "Length":453.0, "SourceLongitude":13.35, "SourceLatitude":47.13, "Mountains":"Alps", "SourceAltitude":1898.0, "EstuaryLongitude":16.88, "EstuaryLatitude":46.3},
 {"Name":"Murat", "River":"", "Lake":"Lake Keban", "Sea":"", "Length":720.0, "SourceLongitude":44.1, "SourceLatitude":39.55, "Mountains":"Kurdistan", "SourceAltitude":1950.0, "EstuaryLongitude":38.75, "EstuaryLatitude":38.8},
 {"Name":"Murray River", "River":"", "Lake":"Lake Hume", "Sea":"Indian Ocean", "Length":2589.0, "SourceLongitude":148.0, "SourceLatitude":-38.0, "Mountains":"Snowy Mountains", "SourceAltitude":0.0, "EstuaryLongitude":138.88, "EstuaryLatitude":-35.55},
 {"Name":"Murrumbidgee River", "River":"Murray River", "Lake":"Lake Burley Griffin", "Sea":"", "Length":1579.0, "SourceLongitude":148.5, "SourceLatitude":-37.0, "Mountains":"Snowy Mountains", "SourceAltitude":0.0, "EstuaryLongitude":143.22, "EstuaryLatitude":-34.73},
 {"Name":"Narva", "River":"", "Lake":"", "Sea":"Baltic Sea", "Length":78.0, "SourceLongitude":27.49, "SourceLatitude":58.68, "Mountains":"", "SourceAltitude":30.0, "EstuaryLongitude":28.04, "EstuaryLatitude":59.46},
 {"Name":"Naryn", "River":"Syrdarja", "Lake":"", "Sea":"", "Length":807.0, "SourceLongitude":78.0, "SourceLatitude":42.0, "Mountains":"Tien Shan", "SourceAltitude":0.0, "EstuaryLongitude":71.7, "EstuaryLatitude":41.0},
 {"Name":"Neckar", "River":"Rhein", "Lake":"", "Sea":"", "Length":367.0, "SourceLongitude":8.5, "SourceLatitude":48.05, "Mountains":"", "SourceAltitude":706.0, "EstuaryLongitude":8.44, "EstuaryLatitude":49.51},
 {"Name":"Nelson River", "River":"", "Lake":"", "Sea":"Arctic Ocean", "Length":664.0, "SourceLongitude":-97.97, "SourceLatitude":52.77, "Mountains":"", "SourceAltitude":218.0, "EstuaryLongitude":-92.33, "EstuaryLatitude":57.15},
 {"Name":"Newa", "River":"", "Lake":"", "Sea":"Baltic Sea", "Length":74.0, "SourceLongitude":31.53, "SourceLatitude":60.82, "Mountains":"", "SourceAltitude":4.0, "EstuaryLongitude":30.17, "EstuaryLatitude":59.95},
 {"Name":"Niagara River", "River":"", "Lake":"Lake Ontario", "Sea":"", "Length":58.0, "SourceLongitude":-78.9, "SourceLatitude":42.9, "Mountains":"", "SourceAltitude":174.0, "EstuaryLongitude":79.1, "EstuaryLatitude":43.25},
 {"Name":"Niger", "River":"", "Lake":"Lake Kainji", "Sea":"Atlantic Ocean", "Length":4184.0, "SourceLongitude":-10.87, "SourceLatitude":9.65, "Mountains":"", "SourceAltitude":490.0, "EstuaryLongitude":6.42, "EstuaryLatitude":5.32},
 {"Name":"Nile", "River":"", "Lake":"Lake Nasser", "Sea":"Mediterranean Sea", "Length":0.0, "SourceLongitude":32.5, "SourceLatitude":15.6, "Mountains":"", "SourceAltitude":0.0, "EstuaryLongitude":31.0, "EstuaryLatitude":31.5},
 {"Name":"Northern Dwina", "River":"", "Lake":"", "Sea":"Barents Sea", "Length":740.0, "SourceLongitude":60.9, "SourceLatitude":46.3, "Mountains":"", "SourceAltitude":180.0, "EstuaryLongitude":40.5333, "EstuaryLatitude":64.55},
 {"Name":"Ob", "River":"", "Lake":"", "Sea":"Sibirian Sea", "Length":3650.0, "SourceLongitude":85.0, "SourceLatitude":52.43, "Mountains":"", "SourceAltitude":162.0, "EstuaryLongitude":71.35, "EstuaryLatitude":66.48},
 {"Name":"Oder", "River":"", "Lake":"", "Sea":"Baltic Sea", "Length":866.0, "SourceLongitude":17.52, "SourceLatitude":49.61, "Mountains":"Sudety Mountains", "SourceAltitude":634.0, "EstuaryLongitude":14.59, "EstuaryLatitude":53.6},
 {"Name":"Oesterdalaelv", "River":"Dalaelv", "Lake":"Siljan", "Sea":"", "Length":241.0, "SourceLongitude":12.6, "SourceLatitude":62.2, "Mountains":"", "SourceAltitude":0.0, "EstuaryLongitude":15.1, "EstuaryLatitude":60.7},
 {"Name":"Ohio River", "River":"Mississippi", "Lake":"", "Sea":"", "Length":1579.0, "SourceLongitude":-80.0, "SourceLatitude":40.42, "Mountains":"", "SourceAltitude":222.0, "EstuaryLongitude":-89.13, "EstuaryLatitude":36.98},
 {"Name":"Oka", "River":"Volga", "Lake":"", "Sea":"", "Length":1480.0, "SourceLongitude":36.1, "SourceLatitude":52.5, "Mountains":"", "SourceAltitude":0.0, "EstuaryLongitude":44.0, "EstuaryLatitude":56.3},
 {"Name":"Olt", "River":"Donau", "Lake":"", "Sea":"", "Length":615.0, "SourceLongitude":25.8, "SourceLatitude":46.65, "Mountains":"Karpaten", "SourceAltitude":1280.0, "EstuaryLongitude":24.8, "EstuaryLatitude":43.7},
 {"Name":"Oranje", "River":"", "Lake":"", "Sea":"Atlantic Ocean", "Length":2160.0, "SourceLongitude":28.5, "SourceLatitude":-28.5, "Mountains":"Drakensberge", "SourceAltitude":1800.0, "EstuaryLongitude":16.4, "EstuaryLatitude":-28.55},
 {"Name":"Orinoco", "River":"", "Lake":"", "Sea":"Atlantic Ocean", "Length":2140.0, "SourceLongitude":-63.5, "SourceLatitude":2.0, "Mountains":"Sierra Parima", "SourceAltitude":0.0, "EstuaryLongitude":-62.0, "EstuaryLatitude":9.0},
 {"Name":"Oulujoki", "River":"", "Lake":"", "Sea":"Baltic Sea", "Length":107.0, "SourceLongitude":27.25, "SourceLatitude":64.3, "Mountains":"", "SourceAltitude":123.0, "EstuaryLongitude":25.2, "EstuaryLatitude":65.3},
 {"Name":"Ounasjoki", "River":"Kemijoki", "Lake":"", "Sea":"", "Length":300.0, "SourceLongitude":23.8, "SourceLatitude":68.6, "Mountains":"", "SourceAltitude":450.0, "EstuaryLongitude":24.4, "EstuaryLatitude":66.3},
 {"Name":"Paatsjoki", "River":"", "Lake":"", "Sea":"Barents Sea", "Length":145.0, "SourceLongitude":28.3, "SourceLatitude":68.95, "Mountains":"", "SourceAltitude":119.0, "EstuaryLongitude":30.05, "EstuaryLatitude":60.75},
 {"Name":"Paraguay", "River":"Parana", "Lake":"", "Sea":"", "Length":2549.0, "SourceLongitude":-56.5, "SourceLatitude":-14.5, "Mountains":"", "SourceAltitude":0.0, "EstuaryLongitude":-58.4, "EstuaryLatitude":-27.3},
 {"Name":"Parana", "River":"", "Lake":"", "Sea":"Atlantic Ocean", "Length":3998.0, "SourceLongitude":-46.5, "SourceLatitude":-19.0, "Mountains":"", "SourceAltitude":0.0, "EstuaryLongitude":-58.2, "EstuaryLatitude":-34.5},
 {"Name":"Petschora", "River":"", "Lake":"", "Sea":"Barents Sea", "Length":1809.0, "SourceLongitude":59.0, "SourceLatitude":62.0, "Mountains":"Ural", "SourceAltitude":0.0, "EstuaryLongitude":54.0, "EstuaryLatitude":68.5},
 {"Name":"Pibor", "River":"Sobat", "Lake":"", "Sea":"", "Length":0.0, "SourceLongitude":0.0, "SourceLatitude":0.0, "Mountains":"", "SourceAltitude":0.0, "EstuaryLongitude":0.0, "EstuaryLatitude":0.0},
 {"Name":"Pjandsh", "River":"Amudarja", "Lake":"", "Sea":"", "Length":1125.0, "SourceLongitude":73.0, "SourceLatitude":37.0, "Mountains":"Pamir", "SourceAltitude":4130.0, "EstuaryLongitude":68.3, "EstuaryLatitude":37.1},
 {"Name":"Po", "River":"", "Lake":"", "Sea":"Mediterranean Sea", "Length":652.0, "SourceLongitude":7.09, "SourceLatitude":44.7, "Mountains":"Alps", "SourceAltitude":2022.0, "EstuaryLongitude":12.43, "EstuaryLatitude":44.95},
 {"Name":"Pruth", "River":"Donau", "Lake":"", "Sea":"", "Length":953.0, "SourceLongitude":24.55, "SourceLatitude":48.16, "Mountains":"Karpaten", "SourceAltitude":0.0, "EstuaryLongitude":28.21, "EstuaryLatitude":45.47},
 {"Name":"Raab", "River":"Donau", "Lake":"", "Sea":"", "Length":250.0, "SourceLongitude":15.52, "SourceLatitude":47.35, "Mountains":"Alps", "SourceAltitude":1150.0, "EstuaryLongitude":17.63, "EstuaryLatitude":47.69},
 {"Name":"Reuss", "River":"Aare", "Lake":"Vierwaldstattersee", "Sea":"", "Length":164.0, "SourceLongitude":8.54, "SourceLatitude":46.56, "Mountains":"Alps", "SourceAltitude":2431.0, "EstuaryLongitude":8.2371, "EstuaryLatitude":47.4921},
 {"Name":"Rhein", "River":"", "Lake":"Bodensee", "Sea":"North Sea", "Length":1324.0, "SourceLongitude":8.7, "SourceLatitude":46.6, "Mountains":"Alps", "SourceAltitude":2345.0, "EstuaryLongitude":4.0, "EstuaryLatitude":51.9},
 {"Name":"Rhone", "River":"", "Lake":"Lac Leman", "Sea":"Mediterranean Sea", "Length":812.0, "SourceLongitude":8.38, "SourceLatitude":46.57, "Mountains":"Alps", "SourceAltitude":1753.0, "EstuaryLongitude":4.84, "EstuaryLatitude":43.33},
 {"Name":"Rio Desaguadero", "River":"", "Lake":"Poopo", "Sea":"", "Length":383.0, "SourceLongitude":-69.0, "SourceLatitude":-16.55, "Mountains":"Andes", "SourceAltitude":3812.0, "EstuaryLongitude":-67.1, "EstuaryLatitude":-18.55},
 {"Name":"Rio Grande", "River":"", "Lake":"", "Sea":"Gulf of Mexico", "Length":3034.0, "SourceLongitude":-107.5, "SourceLatitude":38.0, "Mountains":"", "SourceAltitude":3900.0, "EstuaryLongitude":-97.18, "EstuaryLatitude":25.96},
 {"Name":"Rio Lerma", "River":"", "Lake":"Lago de Chapala", "Sea":"Pacific Ocean", "Length":965.0, "SourceLongitude":-99.0, "SourceLatitude":19.0, "Mountains":"", "SourceAltitude":0.0, "EstuaryLongitude":-105.6, "EstuaryLatitude":21.5},
 {"Name":"Rio Madeira", "River":"Amazonas", "Lake":"", "Sea":"", "Length":1450.0, "SourceLongitude":-65.4, "SourceLatitude":-10.4, "Mountains":"", "SourceAltitude":0.0, "EstuaryLongitude":-58.76, "EstuaryLatitude":-3.4},
 {"Name":"Rio Magdalena", "River":"", "Lake":"", "Sea":"Caribbean Sea", "Length":1538.0, "SourceLongitude":-77.0, "SourceLatitude":2.0, "Mountains":"Andes", "SourceAltitude":0.0, "EstuaryLongitude":-74.8, "EstuaryLatitude":10.95},
 {"Name":"Rio Mamore", "River":"Rio Madeira", "Lake":"", "Sea":"", "Length":1931.0, "SourceLongitude":-66.5, "SourceLatitude":-18.0, "Mountains":"Andes", "SourceAltitude":0.0, "EstuaryLongitude":-65.4, "EstuaryLatitude":-10.4},
 {"Name":"Rio Negro", "River":"Amazonas", "Lake":"", "Sea":"", "Length":2253.0, "SourceLongitude":-70.0, "SourceLatitude":-2.0, "Mountains":"Andes", "SourceAltitude":0.0, "EstuaryLongitude":-60.0, "EstuaryLatitude":-3.1},
 {"Name":"Rio San Juan", "River":"", "Lake":"Lake Managua", "Sea":"Caribbean Sea", "Length":199.0, "SourceLongitude":-85.35, "SourceLatitude":11.6, "Mountains":"", "SourceAltitude":31.0, "EstuaryLongitude":-83.7, "EstuaryLatitude":10.9},
 {"Name":"Rio Sao Francisco", "River":"", "Lake":"Lago de Sobradinho", "Sea":"Atlantic Ocean", "Length":2830.0, "SourceLongitude":-43.0, "SourceLatitude":-20.3, "Mountains":"", "SourceAltitude":1200.0, "EstuaryLongitude":-36.4, "EstuaryLatitude":-10.5},
 {"Name":"Riviere Richelieu", "River":"Saint Lawrence River", "Lake":"", "Sea":"", "Length":124.0, "SourceLongitude":-73.3, "SourceLatitude":45.0, "Mountains":"", "SourceAltitude":30.0, "EstuaryLongitude":-73.1, "EstuaryLatitude":46.0},
 {"Name":"Ruki", "River":"Zaire", "Lake":"", "Sea":"", "Length":130.0, "SourceLongitude":19.0, "SourceLatitude":-0.3, "Mountains":"", "SourceAltitude":0.0, "EstuaryLongitude":18.0, "EstuaryLatitude":0.0},
 {"Name":"Ruzizi", "River":"", "Lake":"Lake Tanganjika", "Sea":"", "Length":104.0, "SourceLongitude":29.2, "SourceLatitude":-1.8, "Mountains":"East African Rift", "SourceAltitude":1462.0, "EstuaryLongitude":29.3, "EstuaryLatitude":-3.4},
 {"Name":"Saar", "River":"Mosel", "Lake":"", "Sea":"", "Length":227.0, "SourceLongitude":7.15, "SourceLatitude":48.5, "Mountains":"Vogesen", "SourceAltitude":640.0, "EstuaryLongitude":6.6, "EstuaryLatitude":49.7},
 {"Name":"Saint Lawrence River", "River":"", "Lake":"", "Sea":"Atlantic Ocean", "Length":1197.0, "SourceLongitude":-76.55, "SourceLatitude":44.2, "Mountains":"", "SourceAltitude":75.0, "EstuaryLongitude":-64.8, "EstuaryLatitude":49.6},
 {"Name":"Saluen", "River":"", "Lake":"", "Sea":"Andaman Sea", "Length":2980.0, "SourceLongitude":91.9, "SourceLatitude":32.5, "Mountains":"", "SourceAltitude":5450.0, "EstuaryLongitude":97.5, "EstuaryLatitude":17.0},
 {"Name":"Salzach", "River":"Inn", "Lake":"", "Sea":"", "Length":225.0, "SourceLongitude":12.11, "SourceLatitude":47.3, "Mountains":"Alps", "SourceAltitude":2300.0, "EstuaryLongitude":12.92, "EstuaryLatitude":48.21},
 {"Name":"Sanaga", "River":"", "Lake":"Barrage de Mbakaou", "Sea":"Atlantic Ocean", "Length":918.0, "SourceLongitude":0.0, "SourceLatitude":0.0, "Mountains":"", "SourceAltitude":0.0, "EstuaryLongitude":9.65, "EstuaryLatitude":3.55},
 {"Name":"Sanga", "River":"Zaire", "Lake":"", "Sea":"", "Length":530.0, "SourceLongitude":15.0, "SourceLatitude":6.0, "Mountains":"", "SourceAltitude":0.0, "EstuaryLongitude":17.0, "EstuaryLatitude":-2.0},
 {"Name":"Saone", "River":"Rhone", "Lake":"", "Sea":"", "Length":480.0, "SourceLongitude":6.2, "SourceLatitude":48.1, "Mountains":"Vogesen", "SourceAltitude":451.0, "EstuaryLongitude":4.8, "EstuaryLatitude":45.7},
 {"Name":"Saskatchewan River", "River":"", "Lake":"Lake Winnipeg", "Sea":"", "Length":1392.0, "SourceLongitude":-123.0, "SourceLatitude":52.5, "Mountains":"", "SourceAltitude":1920.0, "EstuaryLongitude":-97.97, "EstuaryLatitude":52.77},
 {"Name":"Save", "River":"Donau", "Lake":"", "Sea":"", "Length":945.0, "SourceLongitude":13.6, "SourceLatitude":46.2, "Mountains":"Alps", "SourceAltitude":0.0, "EstuaryLongitude":20.4667, "EstuaryLatitude":44.8},
 {"Name":"Schari", "River":"", "Lake":"Chad Lake", "Sea":"", "Length":1400.0, "SourceLongitude":21.0, "SourceLatitude":8.0, "Mountains":"", "SourceAltitude":0.0, "EstuaryLongitude":14.0, "EstuaryLatitude":13.2},
 {"Name":"Schatt al Arab", "River":"", "Lake":"", "Sea":"Persian Gulf", "Length":193.0, "SourceLongitude":47.44, "SourceLatitude":31.0, "Mountains":"", "SourceAltitude":20.0, "EstuaryLongitude":48.6, "EstuaryLatitude":29.9},
 {"Name":"Schilka", "River":"Amur", "Lake":"", "Sea":"", "Length":560.0, "SourceLongitude":111.0, "SourceLatitude":49.8, "Mountains":"", "SourceAltitude":0.0, "EstuaryLongitude":121.48, "EstuaryLatitude":53.33},
 {"Name":"Seine", "River":"", "Lake":"", "Sea":"The Channel", "Length":776.0, "SourceLongitude":4.71, "SourceLatitude":47.48, "Mountains":"", "SourceAltitude":470.0, "EstuaryLongitude":0.1, "EstuaryLatitude":49.42},
 {"Name":"Semliki", "River":"", "Lake":"Lake Sese Seko/Albertsee", "Sea":"", "Length":230.0, "SourceLongitude":29.6, "SourceLatitude":-0.35, "Mountains":"East African Rift", "SourceAltitude":920.0, "EstuaryLongitude":30.9, "EstuaryLatitude":1.7},
 {"Name":"Senegal", "River":"", "Lake":"", "Sea":"Atlantic Ocean", "Length":1430.0, "SourceLongitude":-12.0, "SourceLatitude":11.5, "Mountains":"", "SourceAltitude":0.0, "EstuaryLongitude":-16.5, "EstuaryLatitude":15.96},
 {"Name":"Shabelle", "River":"Jubba", "Lake":"", "Sea":"", "Length":1820.0, "SourceLongitude":0.0, "SourceLatitude":0.0, "Mountains":"", "SourceAltitude":0.0, "EstuaryLongitude":42.76, "EstuaryLatitude":0.5},
 {"Name":"Sobat", "River":"White Nile", "Lake":"", "Sea":"", "Length":740.0, "SourceLongitude":0.0, "SourceLatitude":0.0, "Mountains":"", "SourceAltitude":0.0, "EstuaryLongitude":31.65, "EstuaryLatitude":9.63},
 {"Name":"Southern Morava", "River":"Morava", "Lake":"", "Sea":"", "Length":295.0, "SourceLongitude":21.4, "SourceLatitude":42.1, "Mountains":"", "SourceAltitude":0.0, "EstuaryLongitude":21.4, "EstuaryLatitude":43.7},
 {"Name":"Suchona", "River":"Northern Dwina", "Lake":"", "Sea":"", "Length":558.0, "SourceLongitude":59.0, "SourceLatitude":39.0, "Mountains":"", "SourceAltitude":180.0, "EstuaryLongitude":60.9, "EstuaryLatitude":46.3},
 {"Name":"Swir", "River":"", "Lake":"Ozero Ladoga", "Sea":"", "Length":224.0, "SourceLongitude":35.49, "SourceLatitude":60.99, "Mountains":"", "SourceAltitude":33.0, "EstuaryLongitude":32.79, "EstuaryLatitude":60.51},
 {"Name":"Syrdarja", "River":"", "Lake":"Ozero Aral", "Sea":"", "Length":2129.0, "SourceLongitude":71.7, "SourceLatitude":41.0, "Mountains":"", "SourceAltitude":0.0, "EstuaryLongitude":60.5, "EstuaryLatitude":46.0},
 {"Name":"Tajo", "River":"", "Lake":"", "Sea":"Atlantic Ocean", "Length":1007.0, "SourceLongitude":-1.7, "SourceLatitude":40.32, "Mountains":"Cordillera Iberica", "SourceAltitude":1.58, "EstuaryLongitude":-9.3, "EstuaryLatitude":38.7},
 {"Name":"Tennessee", "River":"Ohio River", "Lake":"Chickamauga Lake", "Sea":"", "Length":1049.0, "SourceLongitude":-83.0, "SourceLatitude":35.2, "Mountains":"Appalachian Mountains", "SourceAltitude":0.0, "EstuaryLongitude":-88.63, "EstuaryLatitude":37.07},
 {"Name":"Thames", "River":"", "Lake":"", "Sea":"North Sea", "Length":346.0, "SourceLongitude":-2.03, "SourceLatitude":51.7, "Mountains":"", "SourceAltitude":105.0, "EstuaryLongitude":0.65, "EstuaryLatitude":51.5},
 {"Name":"Theiss", "River":"Donau", "Lake":"", "Sea":"", "Length":1308.0, "SourceLongitude":24.25, "SourceLatitude":48.1, "Mountains":"Karpaten", "SourceAltitude":460.0, "EstuaryLongitude":20.3, "EstuaryLatitude":45.05},
 {"Name":"Thjorsa", "River":"", "Lake":"", "Sea":"Atlantic Ocean", "Length":230.0, "SourceLongitude":-18.0, "SourceLatitude":65.0, "Mountains":"", "SourceAltitude":0.0, "EstuaryLongitude":-20.8, "EstuaryLatitude":63.9},
 {"Name":"Tiber", "River":"", "Lake":"", "Sea":"Mediterranean Sea", "Length":405.0, "SourceLongitude":12.08, "SourceLatitude":43.77, "Mountains":"Apennin", "SourceAltitude":1348.0, "EstuaryLongitude":12.23, "EstuaryLatitude":41.74},
 {"Name":"Ticino", "River":"Po", "Lake":"Lago Maggiore", "Sea":"", "Length":248.0, "SourceLongitude":8.42, "SourceLatitude":46.475, "Mountains":"Alps", "SourceAltitude":2400.0, "EstuaryLongitude":9.235, "EstuaryLatitude":45.14},
 {"Name":"Tigris", "River":"Schatt al Arab", "Lake":"", "Sea":"", "Length":1900.0, "SourceLongitude":41.0, "SourceLatitude":38.3, "Mountains":"Antitaurus", "SourceAltitude":0.0, "EstuaryLongitude":47.44, "EstuaryLatitude":31.0},
 {"Name":"Tobol", "River":"Ob", "Lake":"", "Sea":"", "Length":1591.0, "SourceLongitude":60.8, "SourceLatitude":51.2, "Mountains":"Ural", "SourceAltitude":0.0, "EstuaryLongitude":68.25, "EstuaryLatitude":58.2},
 {"Name":"Tocantins", "River":"", "Lake":"", "Sea":"Atlantic Ocean", "Length":2640.0, "SourceLongitude":-49.0, "SourceLatitude":-16.0, "Mountains":"", "SourceAltitude":0.0, "EstuaryLongitude":-48.0, "EstuaryLatitude":-0.5},
 {"Name":"Truckee River", "River":"", "Lake":"Pyramid Lake", "Sea":"", "Length":225.0, "SourceLongitude":-120.0, "SourceLatitude":39.0, "Mountains":"", "SourceAltitude":1900.0, "EstuaryLongitude":-119.43, "EstuaryLatitude":39.85},
 {"Name":"Tshuapa", "River":"Busira", "Lake":"", "Sea":"", "Length":1300.0, "SourceLongitude":24.5, "SourceLatitude":-3.0, "Mountains":"", "SourceAltitude":0.0, "EstuaryLongitude":20.8, "EstuaryLatitude":-0.2},
 {"Name":"Ubangi", "River":"Zaire", "Lake":"", "Sea":"", "Length":1120.0, "SourceLongitude":22.5, "SourceLatitude":4.0, "Mountains":"", "SourceAltitude":0.0, "EstuaryLongitude":17.7, "EstuaryLatitude":-0.8},
 {"Name":"Uelle", "River":"Ubangi", "Lake":"", "Sea":"", "Length":1130.0, "SourceLongitude":30.5, "SourceLatitude":2.0, "Mountains":"East African Rift", "SourceAltitude":0.0, "EstuaryLongitude":22.5, "EstuaryLatitude":4.0},
 {"Name":"Umeaelv", "River":"", "Lake":"Storuman", "Sea":"Baltic Sea", "Length":470.0, "SourceLongitude":15.0, "SourceLatitude":66.1, "Mountains":"", "SourceAltitude":0.0, "EstuaryLongitude":20.1, "EstuaryLatitude":63.5},
 {"Name":"Ural", "River":"", "Lake":"Caspian Sea", "Sea":"", "Length":2428.0, "SourceLongitude":59.0, "SourceLatitude":54.0, "Mountains":"Ural", "SourceAltitude":0.0, "EstuaryLongitude":51.9, "EstuaryLatitude":47.1},
 {"Name":"Uruguay", "River":"", "Lake":"", "Sea":"Atlantic Ocean", "Length":1790.0, "SourceLongitude":-52.0, "SourceLatitude":-27.5, "Mountains":"", "SourceAltitude":1800.0, "EstuaryLongitude":-58.4, "EstuaryLatitude":-33.9},
 {"Name":"Vaal", "River":"Oranje", "Lake":"", "Sea":"", "Length":1251.0, "SourceLongitude":30.0, "SourceLatitude":-26.0, "Mountains":"Drakensberge", "SourceAltitude":0.0, "EstuaryLongitude":24.0, "EstuaryLatitude":-29.0},
 {"Name":"Vaesterdalaelv", "River":"Dalaelv", "Lake":"", "Sea":"", "Length":320.0, "SourceLongitude":12.6, "SourceLatitude":61.8, "Mountains":"", "SourceAltitude":0.0, "EstuaryLongitude":15.1, "EstuaryLatitude":60.7},
 {"Name":"Victoria Nile", "River":"", "Lake":"Lake Sese Seko/Albertsee", "Sea":"", "Length":0.0, "SourceLongitude":33.0, "SourceLatitude":-1.0, "Mountains":"East African Rift", "SourceAltitude":1134.0, "EstuaryLongitude":30.9, "EstuaryLatitude":1.7},
 {"Name":"Volga", "River":"", "Lake":"Caspian Sea", "Sea":"", "Length":3531.0, "SourceLongitude":33.0, "SourceLatitude":57.0, "Mountains":"Waldai Hills", "SourceAltitude":0.0, "EstuaryLongitude":47.85, "EstuaryLatitude":46.7333},
 {"Name":"Volta", "River":"", "Lake":"Lake Volta", "Sea":"Atlantic Ocean", "Length":1500.0, "SourceLongitude":-4.5, "SourceLatitude":11.0, "Mountains":"", "SourceAltitude":0.0, "EstuaryLongitude":0.68, "EstuaryLatitude":5.77},
 {"Name":"Vuoksi", "River":"", "Lake":"Ozero Ladoga", "Sea":"", "Length":162.0, "SourceLongitude":28.75, "SourceLatitude":61.2, "Mountains":"", "SourceAltitude":0.0, "EstuaryLongitude":31.54, "EstuaryLatitude":60.81},
 {"Name":"Waag", "River":"Donau", "Lake":"", "Sea":"", "Length":403.0, "SourceLongitude":19.81, "SourceLatitude":49.02, "Mountains":"Beskides", "SourceAltitude":664.0, "EstuaryLongitude":18.15, "EstuaryLatitude":47.75},
 {"Name":"Weichsel", "River":"", "Lake":"", "Sea":"Baltic Sea", "Length":1047.0, "SourceLongitude":19.01, "SourceLatitude":49.61, "Mountains":"Beskides", "SourceAltitude":1100.0, "EstuaryLongitude":18.95, "EstuaryLatitude":54.36},
 {"Name":"Werra", "River":"Weser", "Lake":"", "Sea":"", "Length":292.0, "SourceLongitude":10.96, "SourceLatitude":50.5, "Mountains":"Thueringer Wald", "SourceAltitude":797.0, "EstuaryLongitude":9.65, "EstuaryLatitude":51.4},
 {"Name":"Weser", "River":"", "Lake":"", "Sea":"North Sea", "Length":440.0, "SourceLongitude":9.65, "SourceLatitude":51.4, "Mountains":"", "SourceAltitude":116.5, "EstuaryLongitude":8.5, "EstuaryLatitude":53.5},
 {"Name":"Western Dwina", "River":"", "Lake":"", "Sea":"Baltic Sea", "Length":1020.0, "SourceLongitude":34.0, "SourceLatitude":56.0, "Mountains":"Waldai Hills", "SourceAltitude":228.0, "EstuaryLongitude":24.1, "EstuaryLatitude":57.0},
 {"Name":"Western Morava", "River":"Morava", "Lake":"", "Sea":"", "Length":308.0, "SourceLongitude":20.2, "SourceLatitude":43.85, "Mountains":"", "SourceAltitude":0.0, "EstuaryLongitude":21.4, "EstuaryLatitude":43.7},
 {"Name":"White Drin", "River":"Drin", "Lake":"", "Sea":"", "Length":175.0, "SourceLongitude":20.2, "SourceLatitude":42.7, "Mountains":"", "SourceAltitude":0.0, "EstuaryLongitude":20.4, "EstuaryLatitude":42.1},
 {"Name":"White Nile", "River":"Nile", "Lake":"", "Sea":"", "Length":0.0, "SourceLongitude":30.43, "SourceLatitude":9.5, "Mountains":"", "SourceAltitude":0.0, "EstuaryLongitude":32.5, "EstuaryLatitude":15.6},
 {"Name":"Wurm", "River":"Ammer", "Lake":"Starnberger See", "Sea":"", "Length":35.0, "SourceLongitude":11.35, "SourceLatitude":48.0, "Mountains":"", "SourceAltitude":596.0, "EstuaryLongitude":11.5, "EstuaryLatitude":48.3},
 {"Name":"Yukon River", "River":"", "Lake":"", "Sea":"Bering Sea", "Length":3185.0, "SourceLongitude":-134.5, "SourceLatitude":60.54, "Mountains":"", "SourceAltitude":668.0, "EstuaryLongitude":-163.98, "EstuaryLatitude":62.574},
 {"Name":"Zaire", "River":"", "Lake":"", "Sea":"Atlantic Ocean", "Length":4374.0, "SourceLongitude":25.2, "SourceLatitude":0.5, "Mountains":"", "SourceAltitude":0.0, "EstuaryLongitude":12.0, "EstuaryLatitude":-6.0},
 {"Name":"Zambezi", "River":"", "Lake":"Lake Kariba", "Sea":"Indian Ocean", "Length":2574.0, "SourceLongitude":24.2, "SourceLatitude":-11.0, "Mountains":"", "SourceAltitude":1500.0, "EstuaryLongitude":36.0, "EstuaryLatitude":-19.0}]